{
  "schema_version": 2,
  "airports": [
    {
      "iata": "BUD",
      "city": "Budapest",
      "country": "Hungary",
      "lat": 47.4369,
      "lon": 19.2556,
      "tags": [
        "hungary",
        "city-break",
        "culture",
        "thermal"
      ]
    },
    {
      "iata": "VIE",
      "city": "Vienna",
      "country": "Austria",
      "lat": 48.1103,
      "lon": 16.5697,
      "tags": [
        "austria",
        "city-break",
        "culture",
        "shopping"
      ]
    },
    {
      "iata": "BTS",
      "city": "Bratislava",
      "country": "Slovakia",
      "lat": 48.1702,
      "lon": 17.2127,
      "tags": [
        "slovakia",
        "city-break",
        "culture"
      ]
    },
    {
      "iata": "CFU",
      "city": "Corfu",
      "country": "Greece",
      "lat": 39.6019,
      "lon": 19.9117,
      "tags": [
        "greece",
        "island",
        "seaside",
        "family",
        "seasonal-summer"
      ]
    },
    {
      "iata": "HER",
      "city": "Heraklion (Crete)",
      "country": "Greece",
      "lat": 35.3397,
      "lon": 25.1803,
      "tags": [
        "greece",
        "crete",
        "island",
        "seaside",
        "culture",
        "family"
      ]
    },
    {
      "iata": "CHQ",
      "city": "Chania (Crete)",
      "country": "Greece",
      "lat": 35.5317,
      "lon": 24.1497,
      "tags": [
        "greece",
        "crete",
        "island",
        "seaside",
        "quiet",
        "seasonal-summer"
      ]
    },
    {
      "iata": "ZTH",
      "city": "Zakynthos",
      "country": "Greece",
      "lat": 37.7509,
      "lon": 20.8843,
      "tags": [
        "greece",
        "island",
        "seaside",
        "party",
        "seasonal-summer"
      ]
    },
    {
      "iata": "JTR",
      "city": "Santorini",
      "country": "Greece",
      "lat": 36.3992,
      "lon": 25.4793,
      "tags": [
        "greece",
        "cyclades",
        "island",
        "seaside",
        "culture",
        "seasonal-summer"
      ]
    },
    {
      "iata": "RHO",
      "city": "Rhodes",
      "country": "Greece",
      "lat": 36.4054,
      "lon": 28.0862,
      "tags": [
        "greece",
        "island",
        "seaside",
        "family",
        "culture",
        "seasonal-summer"
      ]
    },
    {
      "iata": "JMK",
      "city": "Mykonos",
      "country": "Greece",
      "lat": 37.4351,
      "lon": 25.3481,
      "tags": [
        "greece",
        "cyclades",
        "island",
        "seaside",
        "party",
        "seasonal-summer"
      ]
    },
    {
      "iata": "KGS",
      "city": "Kos",
      "country": "Greece",
      "lat": 36.7933,
      "lon": 27.0917,
      "tags": [
        "greece",
        "island",
        "seaside",
        "family",
        "seasonal-summer"
      ]
    },
    {
      "iata": "PVK",
      "city": "Preveza (Lefkada)",
      "country": "Greece",
      "lat": 38.9255,
      "lon": 20.7653,
      "tags": [
        "greece",
        "seaside",
        "quiet",
        "hidden-gem",
        "seasonal-summer"
      ]
    },
    {
      "iata": "KLX",
      "city": "Kalamata",
      "country": "Greece",
      "lat": 37.0683,
      "lon": 22.0255,
      "tags": [
        "greece",
        "seaside",
        "culture",
        "hidden-gem",
        "seasonal-summer"
      ]
    },
    {
      "iata": "EFL",
      "city": "Kefalonia",
      "country": "Greece",
      "lat": 38.1201,
      "lon": 20.5005,
      "tags": [
        "greece",
        "island",
        "seaside",
        "quiet",
        "seasonal-summer"
      ]
    },
    {
      "iata": "SKG",
      "city": "Thessaloniki",
      "country": "Greece",
      "lat": 40.5197,
      "lon": 22.9709,
      "tags": [
        "greece",
        "city-break",
        "culture",
        "seaside"
      ]
    },
    {
      "iata": "ATH",
      "city": "Athens",
      "country": "Greece",
      "lat": 37.9364,
      "lon": 23.9445,
      "tags": [
        "greece",
        "city-break",
        "culture",
        "seaside"
      ]
    },
    {
      "iata": "CTA",
      "city": "Catania (Sicily)",
      "country": "Italy",
      "lat": 37.4668,
      "lon": 15.0664,
      "tags": [
        "italy",
        "sicily",
        "island",
        "seaside",
        "culture",
        "family"
      ]
    },
    {
      "iata": "PMO",
      "city": "Palermo (Sicily)",
      "country": "Italy",
      "lat": 38.1759,
      "lon": 13.091,
      "tags": [
        "italy",
        "sicily",
        "island",
        "seaside",
        "culture",
        "city-break"
      ]
    },
    {
      "iata": "CAG",
      "city": "Cagliari (Sardinia)",
      "country": "Italy",
      "lat": 39.2517,
      "lon": 9.0544,
      "tags": [
        "italy",
        "sardinia",
        "island",
        "seaside",
        "city-break"
      ]
    },
    {
      "iata": "OLB",
      "city": "Olbia (Sardinia)",
      "country": "Italy",
      "lat": 40.8987,
      "lon": 9.5176,
      "tags": [
        "italy",
        "sardinia",
        "island",
        "seaside",
        "party",
        "seasonal-summer"
      ]
    },
    {
      "iata": "AHO",
      "city": "Alghero (Sardinia)",
      "country": "Italy",
      "lat": 40.6321,
      "lon": 8.2908,
      "tags": [
        "italy",
        "sardinia",
        "island",
        "seaside",
        "quiet",
        "hidden-gem"
      ]
    },
    {
      "iata": "BRI",
      "city": "Bari (Puglia)",
      "country": "Italy",
      "lat": 41.1389,
      "lon": 16.7606,
      "tags": [
        "italy",
        "seaside",
        "culture",
        "city-break"
      ]
    },
    {
      "iata": "SUF",
      "city": "Lamezia Terme (Calabria)",
      "country": "Italy",
      "lat": 38.9054,
      "lon": 16.2423,
      "tags": [
        "italy",
        "seaside",
        "quiet",
        "seasonal-summer"
      ]
    },
    {
      "iata": "BDS",
      "city": "Brindisi (Puglia)",
      "country": "Italy",
      "lat": 40.6576,
      "lon": 17.947,
      "tags": [
        "italy",
        "seaside",
        "culture",
        "seasonal-summer"
      ]
    },
    {
      "iata": "NAP",
      "city": "Naples",
      "country": "Italy",
      "lat": 40.886,
      "lon": 14.2908,
      "tags": [
        "italy",
        "seaside",
        "city-break",
        "culture",
        "family"
      ]
    },
    {
      "iata": "VCE",
      "city": "Venice",
      "country": "Italy",
      "lat": 45.5053,
      "lon": 12.3519,
      "tags": [
        "italy",
        "city-break",
        "culture",
        "shopping",
        "seaside"
      ]
    },
    {
      "iata": "PSA",
      "city": "Pisa (Tuscany)",
      "country": "Italy",
      "lat": 43.6839,
      "lon": 10.3927,
      "tags": [
        "italy",
        "city-break",
        "culture"
      ]
    },
    {
      "iata": "BLQ",
      "city": "Bologna",
      "country": "Italy",
      "lat": 44.5354,
      "lon": 11.2887,
      "tags": [
        "italy",
        "city-break",
        "culture",
        "shopping"
      ]
    },
    {
      "iata": "TRN",
      "city": "Turin",
      "country": "Italy",
      "lat": 45.2008,
      "lon": 7.6497,
      "tags": [
        "italy",
        "city-break",
        "culture",
        "mountains"
      ]
    },
    {
      "iata": "MXP",
      "city": "Milan Malpensa",
      "country": "Italy",
      "lat": 45.6306,
      "lon": 8.7281,
      "tags": [
        "italy",
        "city-break",
        "shopping",
        "culture"
      ]
    },
    {
      "iata": "BGY",
      "city": "Milan Bergamo",
      "country": "Italy",
      "lat": 45.6739,
      "lon": 9.7042,
      "tags": [
        "italy",
        "city-break",
        "shopping",
        "culture"
      ]
    },
    {
      "iata": "FCO",
      "city": "Rome Fiumicino",
      "country": "Italy",
      "lat": 41.8003,
      "lon": 12.2389,
      "tags": [
        "italy",
        "city-break",
        "culture"
      ]
    },
    {
      "iata": "CIA",
      "city": "Rome Ciampino",
      "country": "Italy",
      "lat": 41.7994,
      "lon": 12.5949,
      "tags": [
        "italy",
        "city-break",
        "culture"
      ]
    },
    {
      "iata": "ALC",
      "city": "Alicante",
      "country": "Spain",
      "lat": 38.2822,
      "lon": -0.5581,
      "tags": [
        "spain",
        "seaside",
        "family",
        "party"
      ]
    },
    {
      "iata": "AGP",
      "city": "Malaga",
      "country": "Spain",
      "lat": 36.6749,
      "lon": -4.4991,
      "tags": [
        "spain",
        "seaside",
        "city-break",
        "culture",
        "family",
        "winter-sun"
      ]
    },
    {
      "iata": "VLC",
      "city": "Valencia",
      "country": "Spain",
      "lat": 39.4893,
      "lon": -0.4816,
      "tags": [
        "spain",
        "seaside",
        "city-break",
        "culture",
        "shopping",
        "family"
      ]
    },
    {
      "iata": "BCN",
      "city": "Barcelona",
      "country": "Spain",
      "lat": 41.2971,
      "lon": 2.0785,
      "tags": [
        "spain",
        "city-break",
        "culture",
        "shopping",
        "seaside",
        "party"
      ]
    },
    {
      "iata": "MAD",
      "city": "Madrid",
      "country": "Spain",
      "lat": 40.4719,
      "lon": -3.5626,
      "tags": [
        "spain",
        "city-break",
        "culture",
        "shopping"
      ]
    },
    {
      "iata": "GRO",
      "city": "Girona (Costa Brava)",
      "country": "Spain",
      "lat": 41.901,
      "lon": 2.7605,
      "tags": [
        "spain",
        "seaside",
        "quiet",
        "seasonal-summer"
      ]
    },
    {
      "iata": "CDT",
      "city": "Castellon",
      "country": "Spain",
      "lat": 39.999,
      "lon": -0.026,
      "tags": [
        "spain",
        "seaside",
        "quiet",
        "hidden-gem",
        "seasonal-summer"
      ]
    },
    {
      "iata": "PMI",
      "city": "Palma de Mallorca",
      "country": "Spain",
      "lat": 39.5517,
      "lon": 2.7388,
      "tags": [
        "spain",
        "baleares",
        "island",
        "seaside",
        "party",
        "family",
        "seasonal-summer"
      ]
    },
    {
      "iata": "IBZ",
      "city": "Ibiza",
      "country": "Spain",
      "lat": 38.8729,
      "lon": 1.3731,
      "tags": [
        "spain",
        "baleares",
        "island",
        "seaside",
        "party",
        "seasonal-summer"
      ]
    },
    {
      "iata": "MAH",
      "city": "Menorca",
      "country": "Spain",
      "lat": 39.8626,
      "lon": 4.2186,
      "tags": [
        "spain",
        "baleares",
        "island",
        "seaside",
        "quiet",
        "family",
        "seasonal-summer"
      ]
    },
    {
      "iata": "TFS",
      "city": "Tenerife South",
      "country": "Spain",
      "lat": 28.0445,
      "lon": -16.5725,
      "tags": [
        "spain",
        "canaries",
        "island",
        "seaside",
        "winter-sun",
        "family"
      ]
    },
    {
      "iata": "LPA",
      "city": "Las Palmas (Gran Canaria)",
      "country": "Spain",
      "lat": 27.9319,
      "lon": -15.3866,
      "tags": [
        "spain",
        "canaries",
        "island",
        "seaside",
        "winter-sun",
        "family"
      ]
    },
    {
      "iata": "ACE",
      "city": "Lanzarote",
      "country": "Spain",
      "lat": 28.9455,
      "lon": -13.6052,
      "tags": [
        "spain",
        "canaries",
        "island",
        "seaside",
        "winter-sun",
        "quiet"
      ]
    },
    {
      "iata": "FUE",
      "city": "Fuerteventura",
      "country": "Spain",
      "lat": 28.4527,
      "lon": -13.8638,
      "tags": [
        "spain",
        "canaries",
        "island",
        "seaside",
        "winter-sun",
        "family"
      ]
    },
    {
      "iata": "LIS",
      "city": "Lisbon",
      "country": "Portugal",
      "lat": 38.7813,
      "lon": -9.1363,
      "tags": [
        "portugal",
        "city-break",
        "culture",
        "seaside",
        "shopping"
      ]
    },
    {
      "iata": "OPO",
      "city": "Porto",
      "country": "Portugal",
      "lat": 41.2481,
      "lon": -8.6814,
      "tags": [
        "portugal",
        "city-break",
        "culture",
        "seaside"
      ]
    },
    {
      "iata": "FAO",
      "city": "Faro (Algarve)",
      "country": "Portugal",
      "lat": 37.0144,
      "lon": -7.9659,
      "tags": [
        "portugal",
        "seaside",
        "family",
        "party",
        "winter-sun"
      ]
    },
    {
      "iata": "FNC",
      "city": "Funchal (Madeira)",
      "country": "Portugal",
      "lat": 32.6942,
      "lon": -16.7781,
      "tags": [
        "portugal",
        "island",
        "seaside",
        "winter-sun",
        "hiking",
        "quiet"
      ]
    },
    {
      "iata": "SPU",
      "city": "Split",
      "country": "Croatia",
      "lat": 43.5389,
      "lon": 16.2979,
      "tags": [
        "croatia",
        "seaside",
        "city-break",
        "culture",
        "seasonal-summer"
      ]
    },
    {
      "iata": "DBV",
      "city": "Dubrovnik",
      "country": "Croatia",
      "lat": 42.5614,
      "lon": 18.2682,
      "tags": [
        "croatia",
        "seaside",
        "culture",
        "city-break",
        "seasonal-summer"
      ]
    },
    {
      "iata": "ZAD",
      "city": "Zadar",
      "country": "Croatia",
      "lat": 44.1083,
      "lon": 15.3467,
      "tags": [
        "croatia",
        "seaside",
        "quiet",
        "culture",
        "seasonal-summer"
      ]
    },
    {
      "iata": "MLA",
      "city": "Malta",
      "country": "Malta",
      "lat": 35.8575,
      "lon": 14.4775,
      "tags": [
        "malta",
        "island",
        "seaside",
        "winter-sun",
        "culture",
        "party"
      ]
    },
    {
      "iata": "BOJ",
      "city": "Burgas",
      "country": "Bulgaria",
      "lat": 42.5696,
      "lon": 27.5152,
      "tags": [
        "bulgaria",
        "seaside",
        "party",
        "seasonal-summer"
      ]
    },
    {
      "iata": "VAR",
      "city": "Varna",
      "country": "Bulgaria",
      "lat": 43.2321,
      "lon": 27.8251,
      "tags": [
        "bulgaria",
        "seaside",
        "family",
        "seasonal-summer"
      ]
    },
    {
      "iata": "TIA",
      "city": "Tirana",
      "country": "Albania",
      "lat": 41.4147,
      "lon": 19.7206,
      "tags": [
        "albania",
        "seaside",
        "hidden-gem",
        "culture",
        "city-break"
      ]
    },
    {
      "iata": "STN",
      "city": "London Stansted",
      "country": "UK",
      "lat": 51.885,
      "lon": 0.235,
      "tags": [
        "uk",
        "city-break",
        "shopping",
        "culture"
      ]
    },
    {
      "iata": "LTN",
      "city": "London Luton",
      "country": "UK",
      "lat": 51.8747,
      "lon": -0.3683,
      "tags": [
        "uk",
        "city-break",
        "shopping"
      ]
    },
    {
      "iata": "LGW",
      "city": "London Gatwick",
      "country": "UK",
      "lat": 51.1537,
      "lon": -0.1821,
      "tags": [
        "uk",
        "city-break",
        "shopping"
      ]
    },
    {
      "iata": "EDI",
      "city": "Edinburgh",
      "country": "UK",
      "lat": 55.95,
      "lon": -3.3725,
      "tags": [
        "uk",
        "city-break",
        "culture"
      ]
    },
    {
      "iata": "DUB",
      "city": "Dublin",
      "country": "Ireland",
      "lat": 53.4213,
      "lon": -6.2701,
      "tags": [
        "ireland",
        "city-break",
        "culture",
        "party"
      ]
    },
    {
      "iata": "CDG",
      "city": "Paris Charles de Gaulle",
      "country": "France",
      "lat": 49.0099,
      "lon": 2.55,
      "tags": [
        "france",
        "city-break",
        "culture",
        "shopping"
      ]
    },
    {
      "iata": "BVA",
      "city": "Paris Beauvais",
      "country": "France",
      "lat": 49.4544,
      "lon": 2.1128,
      "tags": [
        "france",
        "city-break",
        "culture",
        "shopping"
      ]
    },
    {
      "iata": "AMS",
      "city": "Amsterdam",
      "country": "Netherlands",
      "lat": 52.3086,
      "lon": 4.7639,
      "tags": [
        "netherlands",
        "city-break",
        "culture",
        "party",
        "shopping"
      ]
    },
    {
      "iata": "CRL",
      "city": "Brussels Charleroi",
      "country": "Belgium",
      "lat": 50.4592,
      "lon": 4.4538,
      "tags": [
        "belgium",
        "city-break",
        "culture"
      ]
    },
    {
      "iata": "BER",
      "city": "Berlin Brandenburg",
      "country": "Germany",
      "lat": 52.3667,
      "lon": 13.5033,
      "tags": [
        "germany",
        "city-break",
        "culture",
        "party",
        "shopping"
      ]
    },
    {
      "iata": "MUC",
      "city": "Munich",
      "country": "Germany",
      "lat": 48.3538,
      "lon": 11.7861,
      "tags": [
        "germany",
        "city-break",
        "culture",
        "mountains"
      ]
    },
    {
      "iata": "FRA",
      "city": "Frankfurt",
      "country": "Germany",
      "lat": 50.0379,
      "lon": 8.5622,
      "tags": [
        "germany",
        "city-break",
        "shopping"
      ]
    },
    {
      "iata": "PRG",
      "city": "Prague",
      "country": "Czech Republic",
      "lat": 50.1008,
      "lon": 14.26,
      "tags": [
        "czech",
        "city-break",
        "culture",
        "party"
      ]
    },
    {
      "iata": "KRK",
      "city": "Krakow",
      "country": "Poland",
      "lat": 50.0777,
      "lon": 19.7848,
      "tags": [
        "poland",
        "city-break",
        "culture",
        "party"
      ]
    },
    {
      "iata": "WAW",
      "city": "Warsaw",
      "country": "Poland",
      "lat": 52.1657,
      "lon": 20.9671,
      "tags": [
        "poland",
        "city-break",
        "culture",
        "shopping"
      ]
    },
    {
      "iata": "WMI",
      "city": "Warsaw Modlin",
      "country": "Poland",
      "lat": 52.4511,
      "lon": 20.6517,
      "tags": [
        "poland",
        "city-break",
        "culture"
      ]
    },
    {
      "iata": "IST",
      "city": "Istanbul",
      "country": "Turkey",
      "lat": 41.2619,
      "lon": 28.7279,
      "tags": [
        "turkey",
        "city-break",
        "culture",
        "shopping"
      ]
    },
    {
      "iata": "SAW",
      "city": "Istanbul Sabiha",
      "country": "Turkey",
      "lat": 40.8983,
      "lon": 29.3092,
      "tags": [
        "turkey",
        "city-break",
        "culture",
        "shopping"
      ]
    }
  ],
  "multi_city": {
    "London": [
      "STN",
      "LTN",
      "LGW"
    ],
    "Milan": [
      "MXP",
      "BGY"
    ],
    "Rome": [
      "FCO",
      "CIA"
    ],
    "Paris": [
      "CDG",
      "BVA"
    ],
    "Warsaw": [
      "WAW",
      "WMI"
    ],
    "Istanbul": [
      "IST",
      "SAW"
    ]
  },
  "origin_ground": {
    "VIE": {
      "from": "BUD",
      "minutes": 165,
      "est_cost_eur": 21,
      "mode": "bus",
      "note": "BUD->VIE FlixBus/RegioJet ~2h45m, EUR 19-24 (static curation, 2026)"
    },
    "BTS": {
      "from": "BUD",
      "minutes": 120,
      "est_cost_eur": 12,
      "mode": "bus",
      "note": "BUD->BTS FlixBus/RegioJet ~2h, EUR 10-15 (static curation, 2026)"
    }
  },
  "open_jaw_pairs": [
    {
      "a": "NAP",
      "b": "BRI",
      "ground_minutes": 240,
      "est_cost_eur": 35,
      "mode": "train",
      "note": "Naples<->Bari Trenitalia ~4h (static curation)"
    },
    {
      "a": "BCN",
      "b": "VLC",
      "ground_minutes": 210,
      "est_cost_eur": 30,
      "mode": "train",
      "note": "Barcelona<->Valencia Renfe ~3h (static curation)"
    },
    {
      "a": "ATH",
      "b": "SKG",
      "ground_minutes": 255,
      "est_cost_eur": 30,
      "mode": "train",
      "note": "Athens<->Thessaloniki intercity ~4h15 (static curation)"
    },
    {
      "a": "PMO",
      "b": "CTA",
      "ground_minutes": 165,
      "est_cost_eur": 13,
      "mode": "bus",
      "note": "Palermo<->Catania bus ~2h45 (static curation)"
    },
    {
      "a": "LIS",
      "b": "OPO",
      "ground_minutes": 180,
      "est_cost_eur": 25,
      "mode": "train",
      "note": "Lisbon<->Porto Alfa Pendular ~3h (static curation)"
    },
    {
      "a": "SPU",
      "b": "ZAD",
      "ground_minutes": 180,
      "est_cost_eur": 15,
      "mode": "bus",
      "note": "Split<->Zadar bus ~3h (static curation)"
    }
  ]
}
