{
  "schema_version": 2,
  "airports": [
    {
      "iata": "BUD",
      "city": "Budapest",
      "country": "Hungary",
      "lat": 47.4369,
      "lon": 19.2556,
      "tags": [
        "hungary",
        "city-break",
        "culture",
        "thermal"
      ],
      "city_lat": 47.4979,
      "city_lon": 19.0402,
      "access_pad_minutes": 40
    },
    {
      "iata": "VIE",
      "city": "Vienna",
      "country": "Austria",
      "lat": 48.1103,
      "lon": 16.5697,
      "tags": [
        "austria",
        "city-break",
        "culture",
        "shopping"
      ],
      "city_lat": 48.2082,
      "city_lon": 16.3738,
      "access_pad_minutes": 35
    },
    {
      "iata": "BTS",
      "city": "Bratislava",
      "country": "Slovakia",
      "lat": 48.1702,
      "lon": 17.2127,
      "tags": [
        "slovakia",
        "city-break",
        "culture"
      ],
      "city_lat": 48.1486,
      "city_lon": 17.1077
    },
    {
      "iata": "CFU",
      "city": "Corfu",
      "country": "Greece",
      "lat": 39.6019,
      "lon": 19.9117,
      "tags": [
        "greece",
        "island",
        "seaside",
        "family",
        "seasonal-summer"
      ],
      "city_lat": 39.6243,
      "city_lon": 19.9217
    },
    {
      "iata": "HER",
      "city": "Heraklion (Crete)",
      "country": "Greece",
      "lat": 35.3397,
      "lon": 25.1803,
      "tags": [
        "greece",
        "crete",
        "island",
        "seaside",
        "culture",
        "family"
      ],
      "city_lat": 35.3387,
      "city_lon": 25.1442
    },
    {
      "iata": "CHQ",
      "city": "Chania (Crete)",
      "country": "Greece",
      "lat": 35.5317,
      "lon": 24.1497,
      "tags": [
        "greece",
        "crete",
        "island",
        "seaside",
        "quiet",
        "seasonal-summer"
      ],
      "city_lat": 35.5138,
      "city_lon": 24.018
    },
    {
      "iata": "ZTH",
      "city": "Zakynthos",
      "country": "Greece",
      "lat": 37.7509,
      "lon": 20.8843,
      "tags": [
        "greece",
        "island",
        "seaside",
        "party",
        "seasonal-summer"
      ],
      "city_lat": 37.787,
      "city_lon": 20.899
    },
    {
      "iata": "JTR",
      "city": "Santorini",
      "country": "Greece",
      "lat": 36.3992,
      "lon": 25.4793,
      "tags": [
        "greece",
        "cyclades",
        "island",
        "seaside",
        "culture",
        "seasonal-summer"
      ],
      "city_lat": 36.4165,
      "city_lon": 25.4326
    },
    {
      "iata": "RHO",
      "city": "Rhodes",
      "country": "Greece",
      "lat": 36.4054,
      "lon": 28.0862,
      "tags": [
        "greece",
        "island",
        "seaside",
        "family",
        "culture",
        "seasonal-summer"
      ],
      "city_lat": 36.4349,
      "city_lon": 28.2176
    },
    {
      "iata": "JMK",
      "city": "Mykonos",
      "country": "Greece",
      "lat": 37.4351,
      "lon": 25.3481,
      "tags": [
        "greece",
        "cyclades",
        "island",
        "seaside",
        "party",
        "seasonal-summer"
      ],
      "city_lat": 37.4467,
      "city_lon": 25.3289
    },
    {
      "iata": "KGS",
      "city": "Kos",
      "country": "Greece",
      "lat": 36.7933,
      "lon": 27.0917,
      "tags": [
        "greece",
        "island",
        "seaside",
        "family",
        "seasonal-summer"
      ],
      "city_lat": 36.8933,
      "city_lon": 27.2889
    },
    {
      "iata": "PVK",
      "city": "Preveza (Lefkada)",
      "country": "Greece",
      "lat": 38.9255,
      "lon": 20.7653,
      "tags": [
        "greece",
        "seaside",
        "quiet",
        "hidden-gem",
        "seasonal-summer"
      ],
      "city_lat": 38.9591,
      "city_lon": 20.7514
    },
    {
      "iata": "KLX",
      "city": "Kalamata",
      "country": "Greece",
      "lat": 37.0683,
      "lon": 22.0255,
      "tags": [
        "greece",
        "seaside",
        "culture",
        "hidden-gem",
        "seasonal-summer"
      ],
      "city_lat": 37.0389,
      "city_lon": 22.1142
    },
    {
      "iata": "EFL",
      "city": "Kefalonia",
      "country": "Greece",
      "lat": 38.1201,
      "lon": 20.5005,
      "tags": [
        "greece",
        "island",
        "seaside",
        "quiet",
        "seasonal-summer"
      ],
      "city_lat": 38.1754,
      "city_lon": 20.489
    },
    {
      "iata": "SKG",
      "city": "Thessaloniki",
      "country": "Greece",
      "lat": 40.5197,
      "lon": 22.9709,
      "tags": [
        "greece",
        "city-break",
        "culture",
        "seaside"
      ],
      "city_lat": 40.6401,
      "city_lon": 22.9444
    },
    {
      "iata": "ATH",
      "city": "Athens",
      "country": "Greece",
      "lat": 37.9364,
      "lon": 23.9445,
      "tags": [
        "greece",
        "city-break",
        "culture"
      ],
      "city_lat": 37.9838,
      "city_lon": 23.7275,
      "access_pad_minutes": 45
    },
    {
      "iata": "CTA",
      "city": "Catania (Sicily)",
      "country": "Italy",
      "lat": 37.4668,
      "lon": 15.0664,
      "tags": [
        "italy",
        "sicily",
        "island",
        "seaside",
        "culture",
        "family"
      ],
      "city_lat": 37.5079,
      "city_lon": 15.083
    },
    {
      "iata": "PMO",
      "city": "Palermo (Sicily)",
      "country": "Italy",
      "lat": 38.1759,
      "lon": 13.091,
      "tags": [
        "italy",
        "sicily",
        "island",
        "seaside",
        "culture",
        "city-break"
      ],
      "city_lat": 38.1157,
      "city_lon": 13.3615
    },
    {
      "iata": "CAG",
      "city": "Cagliari (Sardinia)",
      "country": "Italy",
      "lat": 39.2517,
      "lon": 9.0544,
      "tags": [
        "italy",
        "sardinia",
        "island",
        "seaside",
        "city-break"
      ],
      "city_lat": 39.2238,
      "city_lon": 9.1217
    },
    {
      "iata": "OLB",
      "city": "Olbia (Sardinia)",
      "country": "Italy",
      "lat": 40.8987,
      "lon": 9.5176,
      "tags": [
        "italy",
        "sardinia",
        "island",
        "seaside",
        "party",
        "seasonal-summer"
      ],
      "city_lat": 40.9236,
      "city_lon": 9.4993
    },
    {
      "iata": "AHO",
      "city": "Alghero (Sardinia)",
      "country": "Italy",
      "lat": 40.6321,
      "lon": 8.2908,
      "tags": [
        "italy",
        "sardinia",
        "island",
        "seaside",
        "quiet",
        "hidden-gem"
      ],
      "city_lat": 40.5589,
      "city_lon": 8.3181
    },
    {
      "iata": "BRI",
      "city": "Bari (Puglia)",
      "country": "Italy",
      "lat": 41.1389,
      "lon": 16.7606,
      "tags": [
        "italy",
        "seaside",
        "culture",
        "city-break"
      ],
      "city_lat": 41.1171,
      "city_lon": 16.8719
    },
    {
      "iata": "SUF",
      "city": "Lamezia Terme (Calabria)",
      "country": "Italy",
      "lat": 38.9054,
      "lon": 16.2423,
      "tags": [
        "italy",
        "seaside",
        "quiet",
        "seasonal-summer"
      ],
      "city_lat": 38.9659,
      "city_lon": 16.311
    },
    {
      "iata": "BDS",
      "city": "Brindisi (Puglia)",
      "country": "Italy",
      "lat": 40.6576,
      "lon": 17.947,
      "tags": [
        "italy",
        "seaside",
        "culture",
        "seasonal-summer"
      ],
      "city_lat": 40.6327,
      "city_lon": 17.9418
    },
    {
      "iata": "NAP",
      "city": "Naples",
      "country": "Italy",
      "lat": 40.886,
      "lon": 14.2908,
      "tags": [
        "italy",
        "seaside",
        "city-break",
        "culture",
        "family"
      ],
      "city_lat": 40.8518,
      "city_lon": 14.2681
    },
    {
      "iata": "VCE",
      "city": "Venice",
      "country": "Italy",
      "lat": 45.5053,
      "lon": 12.3519,
      "tags": [
        "italy",
        "city-break",
        "culture",
        "shopping",
        "seaside"
      ],
      "city_lat": 45.4408,
      "city_lon": 12.3155,
      "access_pad_minutes": 45
    },
    {
      "iata": "PSA",
      "city": "Pisa (Tuscany)",
      "country": "Italy",
      "lat": 43.6839,
      "lon": 10.3927,
      "tags": [
        "italy",
        "city-break",
        "culture"
      ],
      "city_lat": 43.7228,
      "city_lon": 10.4017
    },
    {
      "iata": "BLQ",
      "city": "Bologna",
      "country": "Italy",
      "lat": 44.5354,
      "lon": 11.2887,
      "tags": [
        "italy",
        "city-break",
        "culture",
        "shopping"
      ],
      "city_lat": 44.4949,
      "city_lon": 11.3426
    },
    {
      "iata": "TRN",
      "city": "Turin",
      "country": "Italy",
      "lat": 45.2008,
      "lon": 7.6497,
      "tags": [
        "italy",
        "city-break",
        "culture",
        "mountains"
      ],
      "city_lat": 45.0703,
      "city_lon": 7.6869
    },
    {
      "iata": "MXP",
      "city": "Milan Malpensa",
      "country": "Italy",
      "lat": 45.6306,
      "lon": 8.7281,
      "tags": [
        "italy",
        "city-break",
        "shopping",
        "culture"
      ],
      "city_lat": 45.4642,
      "city_lon": 9.19,
      "access_pad_minutes": 50
    },
    {
      "iata": "BGY",
      "city": "Milan Bergamo",
      "country": "Italy",
      "lat": 45.6739,
      "lon": 9.7042,
      "tags": [
        "italy",
        "city-break",
        "shopping",
        "culture"
      ],
      "city_lat": 45.4642,
      "city_lon": 9.19,
      "access_pad_minutes": 40
    },
    {
      "iata": "FCO",
      "city": "Rome Fiumicino",
      "country": "Italy",
      "lat": 41.8003,
      "lon": 12.2389,
      "tags": [
        "italy",
        "city-break",
        "culture"
      ],
      "city_lat": 41.9028,
      "city_lon": 12.4964,
      "access_pad_minutes": 45
    },
    {
      "iata": "CIA",
      "city": "Rome Ciampino",
      "country": "Italy",
      "lat": 41.7994,
      "lon": 12.5949,
      "tags": [
        "italy",
        "city-break",
        "culture"
      ],
      "city_lat": 41.9028,
      "city_lon": 12.4964,
      "access_pad_minutes": 45
    },
    {
      "iata": "ALC",
      "city": "Alicante",
      "country": "Spain",
      "lat": 38.2822,
      "lon": -0.5581,
      "tags": [
        "spain",
        "seaside",
        "family",
        "party"
      ],
      "city_lat": 38.3452,
      "city_lon": -0.481
    },
    {
      "iata": "AGP",
      "city": "Malaga",
      "country": "Spain",
      "lat": 36.6749,
      "lon": -4.4991,
      "tags": [
        "spain",
        "seaside",
        "city-break",
        "culture",
        "family",
        "winter-sun"
      ],
      "city_lat": 36.7213,
      "city_lon": -4.4214
    },
    {
      "iata": "VLC",
      "city": "Valencia",
      "country": "Spain",
      "lat": 39.4893,
      "lon": -0.4816,
      "tags": [
        "spain",
        "seaside",
        "city-break",
        "culture",
        "shopping",
        "family"
      ],
      "city_lat": 39.4699,
      "city_lon": -0.3763
    },
    {
      "iata": "BCN",
      "city": "Barcelona",
      "country": "Spain",
      "lat": 41.2971,
      "lon": 2.0785,
      "tags": [
        "spain",
        "city-break",
        "culture",
        "shopping",
        "seaside",
        "party"
      ],
      "city_lat": 41.3874,
      "city_lon": 2.1686,
      "access_pad_minutes": 35
    },
    {
      "iata": "MAD",
      "city": "Madrid",
      "country": "Spain",
      "lat": 40.4719,
      "lon": -3.5626,
      "tags": [
        "spain",
        "city-break",
        "culture",
        "shopping"
      ],
      "city_lat": 40.4168,
      "city_lon": -3.7038,
      "access_pad_minutes": 35
    },
    {
      "iata": "GRO",
      "city": "Girona (Costa Brava)",
      "country": "Spain",
      "lat": 41.901,
      "lon": 2.7605,
      "tags": [
        "spain",
        "seaside",
        "quiet",
        "seasonal-summer"
      ],
      "city_lat": 41.9794,
      "city_lon": 2.8214
    },
    {
      "iata": "CDT",
      "city": "Castellon",
      "country": "Spain",
      "lat": 39.999,
      "lon": -0.026,
      "tags": [
        "spain",
        "seaside",
        "quiet",
        "hidden-gem",
        "seasonal-summer"
      ],
      "city_lat": 39.9864,
      "city_lon": -0.0513
    },
    {
      "iata": "PMI",
      "city": "Palma de Mallorca",
      "country": "Spain",
      "lat": 39.5517,
      "lon": 2.7388,
      "tags": [
        "spain",
        "baleares",
        "island",
        "seaside",
        "party",
        "family",
        "seasonal-summer"
      ],
      "city_lat": 39.5696,
      "city_lon": 2.6502
    },
    {
      "iata": "IBZ",
      "city": "Ibiza",
      "country": "Spain",
      "lat": 38.8729,
      "lon": 1.3731,
      "tags": [
        "spain",
        "baleares",
        "island",
        "seaside",
        "party",
        "seasonal-summer"
      ],
      "city_lat": 38.9067,
      "city_lon": 1.4206
    },
    {
      "iata": "MAH",
      "city": "Menorca",
      "country": "Spain",
      "lat": 39.8626,
      "lon": 4.2186,
      "tags": [
        "spain",
        "baleares",
        "island",
        "seaside",
        "quiet",
        "family",
        "seasonal-summer"
      ],
      "city_lat": 39.8885,
      "city_lon": 4.2658
    },
    {
      "iata": "TFS",
      "city": "Tenerife South",
      "country": "Spain",
      "lat": 28.0445,
      "lon": -16.5725,
      "tags": [
        "spain",
        "canaries",
        "island",
        "seaside",
        "winter-sun",
        "family"
      ],
      "city_lat": 28.4636,
      "city_lon": -16.2518,
      "access_pad_minutes": 60
    },
    {
      "iata": "LPA",
      "city": "Las Palmas (Gran Canaria)",
      "country": "Spain",
      "lat": 27.9319,
      "lon": -15.3866,
      "tags": [
        "spain",
        "canaries",
        "island",
        "seaside",
        "winter-sun",
        "family"
      ],
      "city_lat": 28.1235,
      "city_lon": -15.4363
    },
    {
      "iata": "ACE",
      "city": "Lanzarote",
      "country": "Spain",
      "lat": 28.9455,
      "lon": -13.6052,
      "tags": [
        "spain",
        "canaries",
        "island",
        "seaside",
        "winter-sun",
        "quiet"
      ],
      "city_lat": 28.963,
      "city_lon": -13.5477
    },
    {
      "iata": "FUE",
      "city": "Fuerteventura",
      "country": "Spain",
      "lat": 28.4527,
      "lon": -13.8638,
      "tags": [
        "spain",
        "canaries",
        "island",
        "seaside",
        "winter-sun",
        "family"
      ],
      "city_lat": 28.5004,
      "city_lon": -13.8627
    },
    {
      "iata": "LIS",
      "city": "Lisbon",
      "country": "Portugal",
      "lat": 38.7813,
      "lon": -9.1363,
      "tags": [
        "portugal",
        "city-break",
        "culture",
        "seaside",
        "shopping"
      ],
      "city_lat": 38.7223,
      "city_lon": -9.1393
    },
    {
      "iata": "OPO",
      "city": "Porto",
      "country": "Portugal",
      "lat": 41.2481,
      "lon": -8.6814,
      "tags": [
        "portugal",
        "city-break",
        "culture",
        "seaside"
      ],
      "city_lat": 41.1579,
      "city_lon": -8.6291
    },
    {
      "iata": "FAO",
      "city": "Faro (Algarve)",
      "country": "Portugal",
      "lat": 37.0144,
      "lon": -7.9659,
      "tags": [
        "portugal",
        "seaside",
        "family",
        "party",
        "winter-sun"
      ],
      "city_lat": 37.0194,
      "city_lon": -7.9304
    },
    {
      "iata": "FNC",
      "city": "Funchal (Madeira)",
      "country": "Portugal",
      "lat": 32.6942,
      "lon": -16.7781,
      "tags": [
        "portugal",
        "island",
        "seaside",
        "winter-sun",
        "hiking",
        "quiet"
      ],
      "city_lat": 32.6669,
      "city_lon": -16.9241
    },
    {
      "iata": "SPU",
      "city": "Split",
      "country": "Croatia",
      "lat": 43.5389,
      "lon": 16.2979,
      "tags": [
        "croatia",
        "seaside",
        "city-break",
        "culture",
        "seasonal-summer"
      ],
      "city_lat": 43.5081,
      "city_lon": 16.4402
    },
    {
      "iata": "DBV",
      "city": "Dubrovnik",
      "country": "Croatia",
      "lat": 42.5614,
      "lon": 18.2682,
      "tags": [
        "croatia",
        "seaside",
        "culture",
        "city-break",
        "seasonal-summer"
      ],
      "city_lat": 42.6507,
      "city_lon": 18.0944
    },
    {
      "iata": "ZAD",
      "city": "Zadar",
      "country": "Croatia",
      "lat": 44.1083,
      "lon": 15.3467,
      "tags": [
        "croatia",
        "seaside",
        "quiet",
        "culture",
        "seasonal-summer"
      ],
      "city_lat": 44.1194,
      "city_lon": 15.2314
    },
    {
      "iata": "MLA",
      "city": "Malta",
      "country": "Malta",
      "lat": 35.8575,
      "lon": 14.4775,
      "tags": [
        "malta",
        "island",
        "seaside",
        "winter-sun",
        "culture",
        "party"
      ],
      "city_lat": 35.8989,
      "city_lon": 14.5146
    },
    {
      "iata": "BOJ",
      "city": "Burgas",
      "country": "Bulgaria",
      "lat": 42.5696,
      "lon": 27.5152,
      "tags": [
        "bulgaria",
        "seaside",
        "party",
        "seasonal-summer"
      ],
      "city_lat": 42.5048,
      "city_lon": 27.4626
    },
    {
      "iata": "VAR",
      "city": "Varna",
      "country": "Bulgaria",
      "lat": 43.2321,
      "lon": 27.8251,
      "tags": [
        "bulgaria",
        "seaside",
        "family",
        "seasonal-summer"
      ],
      "city_lat": 43.2141,
      "city_lon": 27.9147
    },
    {
      "iata": "TIA",
      "city": "Tirana",
      "country": "Albania",
      "lat": 41.4147,
      "lon": 19.7206,
      "tags": [
        "albania",
        "seaside",
        "hidden-gem",
        "culture",
        "city-break"
      ],
      "city_lat": 41.3275,
      "city_lon": 19.8187
    },
    {
      "iata": "STN",
      "city": "London Stansted",
      "country": "UK",
      "lat": 51.885,
      "lon": 0.235,
      "tags": [
        "uk",
        "city-break",
        "shopping",
        "culture"
      ],
      "city_lat": 51.5074,
      "city_lon": -0.1278,
      "access_pad_minutes": 55
    },
    {
      "iata": "LTN",
      "city": "London Luton",
      "country": "UK",
      "lat": 51.8747,
      "lon": -0.3683,
      "tags": [
        "uk",
        "city-break",
        "shopping"
      ],
      "city_lat": 51.5074,
      "city_lon": -0.1278,
      "access_pad_minutes": 50
    },
    {
      "iata": "LGW",
      "city": "London Gatwick",
      "country": "UK",
      "lat": 51.1537,
      "lon": -0.1821,
      "tags": [
        "uk",
        "city-break",
        "shopping"
      ],
      "city_lat": 51.5074,
      "city_lon": -0.1278,
      "access_pad_minutes": 40
    },
    {
      "iata": "EDI",
      "city": "Edinburgh",
      "country": "UK",
      "lat": 55.95,
      "lon": -3.3725,
      "tags": [
        "uk",
        "city-break",
        "culture"
      ],
      "city_lat": 55.9533,
      "city_lon": -3.1883,
      "access_pad_minutes": 40
    },
    {
      "iata": "DUB",
      "city": "Dublin",
      "country": "Ireland",
      "lat": 53.4213,
      "lon": -6.2701,
      "tags": [
        "ireland",
        "city-break",
        "culture",
        "party"
      ],
      "city_lat": 53.3498,
      "city_lon": -6.2603,
      "access_pad_minutes": 45
    },
    {
      "iata": "CDG",
      "city": "Paris Charles de Gaulle",
      "country": "France",
      "lat": 49.0099,
      "lon": 2.55,
      "tags": [
        "france",
        "city-break",
        "culture",
        "shopping"
      ],
      "city_lat": 48.8566,
      "city_lon": 2.3522,
      "access_pad_minutes": 45
    },
    {
      "iata": "BVA",
      "city": "Paris Beauvais",
      "country": "France",
      "lat": 49.4544,
      "lon": 2.1128,
      "tags": [
        "france",
        "city-break",
        "culture",
        "shopping"
      ],
      "city_lat": 48.8566,
      "city_lon": 2.3522,
      "access_pad_minutes": 75
    },
    {
      "iata": "AMS",
      "city": "Amsterdam",
      "country": "Netherlands",
      "lat": 52.3086,
      "lon": 4.7639,
      "tags": [
        "netherlands",
        "city-break",
        "culture",
        "party",
        "shopping"
      ],
      "city_lat": 52.3676,
      "city_lon": 4.9041
    },
    {
      "iata": "CRL",
      "city": "Brussels Charleroi",
      "country": "Belgium",
      "lat": 50.4592,
      "lon": 4.4538,
      "tags": [
        "belgium",
        "city-break",
        "culture"
      ],
      "city_lat": 50.8503,
      "city_lon": 4.3517,
      "access_pad_minutes": 55
    },
    {
      "iata": "BER",
      "city": "Berlin Brandenburg",
      "country": "Germany",
      "lat": 52.3667,
      "lon": 13.5033,
      "tags": [
        "germany",
        "city-break",
        "culture",
        "party",
        "shopping"
      ],
      "city_lat": 52.52,
      "city_lon": 13.405,
      "access_pad_minutes": 35
    },
    {
      "iata": "MUC",
      "city": "Munich",
      "country": "Germany",
      "lat": 48.3538,
      "lon": 11.7861,
      "tags": [
        "germany",
        "city-break",
        "culture",
        "mountains"
      ],
      "city_lat": 48.1351,
      "city_lon": 11.582,
      "access_pad_minutes": 45
    },
    {
      "iata": "FRA",
      "city": "Frankfurt",
      "country": "Germany",
      "lat": 50.0379,
      "lon": 8.5622,
      "tags": [
        "germany",
        "city-break",
        "shopping"
      ],
      "city_lat": 50.1109,
      "city_lon": 8.6821
    },
    {
      "iata": "PRG",
      "city": "Prague",
      "country": "Czech Republic",
      "lat": 50.1008,
      "lon": 14.26,
      "tags": [
        "czech",
        "city-break",
        "culture",
        "party"
      ],
      "city_lat": 50.0755,
      "city_lon": 14.4378
    },
    {
      "iata": "KRK",
      "city": "Krakow",
      "country": "Poland",
      "lat": 50.0777,
      "lon": 19.7848,
      "tags": [
        "poland",
        "city-break",
        "culture",
        "party"
      ],
      "city_lat": 50.0647,
      "city_lon": 19.945
    },
    {
      "iata": "WAW",
      "city": "Warsaw",
      "country": "Poland",
      "lat": 52.1657,
      "lon": 20.9671,
      "tags": [
        "poland",
        "city-break",
        "culture",
        "shopping"
      ],
      "city_lat": 52.2297,
      "city_lon": 21.0122
    },
    {
      "iata": "WMI",
      "city": "Warsaw Modlin",
      "country": "Poland",
      "lat": 52.4511,
      "lon": 20.6517,
      "tags": [
        "poland",
        "city-break",
        "culture"
      ],
      "city_lat": 52.2297,
      "city_lon": 21.0122,
      "access_pad_minutes": 50
    },
    {
      "iata": "IST",
      "city": "Istanbul",
      "country": "Turkey",
      "lat": 41.2619,
      "lon": 28.7279,
      "tags": [
        "turkey",
        "city-break",
        "culture",
        "shopping"
      ],
      "city_lat": 41.0082,
      "city_lon": 28.9784,
      "access_pad_minutes": 60
    },
    {
      "iata": "SAW",
      "city": "Istanbul Sabiha",
      "country": "Turkey",
      "lat": 40.8983,
      "lon": 29.3092,
      "tags": [
        "turkey",
        "city-break",
        "culture",
        "shopping"
      ],
      "city_lat": 41.0082,
      "city_lon": 28.9784,
      "access_pad_minutes": 70
    }
  ],
  "multi_city": {
    "London": [
      "STN",
      "LTN",
      "LGW"
    ],
    "Milan": [
      "MXP",
      "BGY"
    ],
    "Rome": [
      "FCO",
      "CIA"
    ],
    "Paris": [
      "CDG",
      "BVA"
    ],
    "Warsaw": [
      "WAW",
      "WMI"
    ],
    "Istanbul": [
      "IST",
      "SAW"
    ]
  },
  "origin_ground": {
    "VIE": {
      "from": "BUD",
      "minutes": 165,
      "est_cost_eur": 21,
      "mode": "bus",
      "note": "BUD->VIE FlixBus/RegioJet ~2h45m, EUR 19-24 (static curation, 2026)"
    },
    "BTS": {
      "from": "BUD",
      "minutes": 150,
      "est_cost_eur": 12,
      "mode": "bus",
      "note": "BUD->BTS FlixBus/RegioJet ~2h30m, EUR 10-15 (static curation, 2026)"
    }
  },
  "open_jaw_pairs": [
    {
      "a": "NAP",
      "b": "BRI",
      "ground_minutes": 240,
      "est_cost_eur": 35,
      "mode": "train",
      "note": "Naples<->Bari Trenitalia ~4h (static curation)"
    },
    {
      "a": "BCN",
      "b": "VLC",
      "ground_minutes": 210,
      "est_cost_eur": 30,
      "mode": "train",
      "note": "Barcelona<->Valencia Renfe ~3h (static curation)"
    },
    {
      "a": "ATH",
      "b": "SKG",
      "ground_minutes": 255,
      "est_cost_eur": 30,
      "mode": "train",
      "note": "Athens<->Thessaloniki intercity ~4h15 (static curation)"
    },
    {
      "a": "PMO",
      "b": "CTA",
      "ground_minutes": 165,
      "est_cost_eur": 13,
      "mode": "bus",
      "note": "Palermo<->Catania bus ~2h45 (static curation)"
    },
    {
      "a": "LIS",
      "b": "OPO",
      "ground_minutes": 180,
      "est_cost_eur": 25,
      "mode": "train",
      "note": "Lisbon<->Porto Alfa Pendular ~3h (static curation)"
    },
    {
      "a": "SPU",
      "b": "ZAD",
      "ground_minutes": 180,
      "est_cost_eur": 15,
      "mode": "bus",
      "note": "Split<->Zadar bus ~3h (static curation)"
    },
    {
      "a": "CTA",
      "b": "MLA",
      "ground_minutes": 350,
      "est_cost_eur": 55,
      "mode": "ferry+ground",
      "has_ferry": true,
      "note": "Virtu Ferries via Pozzallo (~90min drive CTA->Pozzallo!), 105min crossing, 2-3/day summer, foot EUR37-111 (researched 2026-07-12, Virtu Ferries). Sources: virtuferries.com; ferryhopper.com/en/ferry-routes/direct/malta-sicily"
    },
    {
      "a": "HER",
      "b": "JTR",
      "ground_minutes": 240,
      "est_cost_eur": 45,
      "mode": "ferry",
      "has_ferry": true,
      "note": "SeaJets fast ~95min ~3/day summer + Blue Star conventional ~285min EUR15; fast economy EUR50-70 (researched 2026-07-12, SeaJets/Blue Star). Sources: ferryhopper.com/en/ferry-routes/direct/heraklion-to-santorini; directferries.com"
    },
    {
      "a": "KLX",
      "b": "ZTH",
      "ground_minutes": 335,
      "est_cost_eur": 25,
      "mode": "ferry+ground",
      "has_ferry": true,
      "note": "drive ~140min to Kyllini + Levante 75min, 6/day summer, foot ~EUR10-15; marginal corridor, long overland leg (researched 2026-07-12, Levante Ferries). Sources: levanteferries.com/en/routes/kyllini-zakynthos"
    },
    {
      "a": "CFU",
      "b": "PVK",
      "ground_minutes": 236,
      "est_cost_eur": 20,
      "mode": "ferry+ground",
      "has_ferry": true,
      "note": "CFU->Igoumenitsa 80min ferry, 20+/day, foot EUR7-15, then ~76min drive to PVK (researched live 2026-07-12). Sources: directferries.com/corfu_igoumenitsa_ferry.htm"
    },
    {
      "a": "CTA",
      "b": "SUF",
      "ground_minutes": 215,
      "est_cost_eur": 15,
      "mode": "ferry+ground",
      "has_ferry": true,
      "note": "Messina Strait shuttle 20min every 20-30min (~52/day), foot EUR3-8; drive legs ~80min each side (researched live 2026-07-12). Sources: directferries.com/villa_san_giovanni_messina_ferry.htm"
    }
  ]
}
